$GPRMC,075443.000,A,5057.2677,N,01317.1899,E,35.86,302.67,110315,,,A*5E
$GPRMC,075444.000,A,5057.2756,N,01317.1780,E,36.09,304.40,110315,,,A*5B
$GPRMC,075444.212,A,5057.2785,N,01317.1760,E,36.38,305.80,110315,,,A*55
$GPRMC,075446.000,A,5057.2914,N,01317.1538,E,36.89,306.89,110315,,,A*5F
$GPRMC,075447.000,A,5057.2998,N,01317.1418,E,37.11,307.47,110315,,,A*5A
$GPRMC,075448.000,A,5057.3081,N,01317.1301,E,37.12,308.05,110315,,,A*50
$GPRMC,075449.000,A,5057.3163,N,01317.1187,E,36.91,309.00,110315,,,A*5E
$GPRMC,075450.000,A,5057.3253,N,01317.1074,E,37.24,310.04,110315,,,A*58
$GPRMC,075450.000,A,5057.3253,N,01317.1074,E,37.24,310.04,110315,,,A*58
$GPRMC,075450.213,A,5057.3289,N,01317.1058,E,37.51,310.75,110315,,,A*55
$GPRMC,075450.213,A,5057.3289,N,01317.1058,E,37.51,310.75,110315,,,A*55
$GPRMC,075452.000,A,5057.3430,N,01317.0843,E,38.10,311.64,110315,,,A*5B
$GPRMC,075453.000,A,5057.3526,N,01317.0730,E,38.65,312.90,110315,,,A*5D
$GPRMC,075454.000,A,5057.3625,N,01317.0618,E,39.21,314.03,110315,,,A*5C
$GPRMC,075455.000,A,5057.3721,N,01317.0503,E,39.72,314.83,110315,,,A*5F
$GPRMC,075456.000,A,5057.3822,N,01317.0389,E,40.29,315.53,110315,,,A*58
$GPRMC,075456.210,V,,,,,40.78,316.68,110315,,,N*7D
$GPRMC,075458.000,V,,,,,43.76,320.20,110315,,,N*74
$GPRMC,075459.000,V,,,,,45.10,322.81,110315,,,N*7A
$GPRMC,075500.000,V,,,,,45.90,323.69,110315,,,N*78
$GPRMC,075500.000,V,,,,,45.90,323.69,110315,,,N*78
$GPRMC,075501.000,V,,,,,46.01,322.12,110315,,,N*7F
$GPRMC,075502.000,V,,,,,46.52,322.72,110315,,,N*7C
$GPRMC,075503.000,V,,,,,46.52,322.72,110315,,,N*7D
$GPRMC,075504.000,V,,,,,46.18,324.24,110315,,,N*71
$GPRMC,075505.000,A,5057.5713,N,01316.9890,E,45.44,324.52,110315,,,A*52
$GPRMC,075506.000,A,5057.5989,N,01316.9838,E,45.13,324.81,110315,,,A*52
$GPRMC,075507.000,A,5057.6256,N,01316.9785,E,44.55,324.23,110315,,,A*5B
$GPRMC,075508.000,A,5057.6413,N,01316.9674,E,43.89,323.97,110315,,,A*52
$GPRMC,075509.000,A,5057.6581,N,01316.9577,E,43.38,324.41,110315,,,A*5F
$GPRMC,075510.000,A,5057.6735,N,01316.9479,E,43.44,324.85,110315,,,A*56
$GPRMC,075510.000,A,5057.6735,N,01316.9479,E,43.44,324.85,110315,,,A*56
$GPRMC,075511.000,A,5057.6883,N,01316.9378,E,43.48,324.22,110315,,,A*52
$GPRMC,075512.000,A,5057.7025,N,01316.9277,E,43.52,324.42,110315,,,A*57
$GPRMC,075513.000,A,5057.7156,N,01316.9175,E,42.92,323.68,110315,,,A*50
$GPRMC,075514.000,A,5057.7304,N,01316.9084,E,42.89,323.85,110315,,,A*54
$GPRMC,075515.000,A,5057.7444,N,01316.8989,E,41.64,322.83,110315,,,A*54
$GPRMC,075516.000,A,5057.7556,N,01316.8885,E,42.01,321.71,110315,,,A*56
$GPRMC,075517.000,A,5057.7663,N,01316.8783,E,38.27,321.39,110315,,,A*5E
$GPRMC,075518.000,A,5057.7759,N,01316.8680,E,36.56,319.81,110315,,,A*5B
$GPRMC,075519.000,A,5057.7836,N,01316.8572,E,35.10,318.61,110315,,,A*5C
$GPRMC,075520.000,A,5057.7912,N,01316.8470,E,33.26,317.50,110315,,,A*5C
$GPRMC,075520.000,A,5057.7912,N,01316.8470,E,33.26,317.50,110315,,,A*5C
$GPRMC,075521.000,A,5057.7981,N,01316.8369,E,32.32,316.36,110315,,,A*5D
$GPRMC,075522.000,A,5057.8045,N,01316.8267,E,30.63,312.70,110315,,,A*5F
$GPRMC,075523.000,A,5057.8107,N,01316.8168,E,29.64,309.16,110315,,,A*50
$GPRMC,075524.000,A,5057.8164,N,01316.8069,E,28.19,307.22,110315,,,A*50
$GPRMC,075525.000,A,5057.8214,N,01316.7970,E,27.48,306.47,110315,,,A*52
$GPRMC,075526.000,A,5057.8266,N,01316.7875,E,26.92,305.76,110315,,,A*57
$GPRMC,075527.000,A,5057.8311,N,01316.7779,E,26.07,304.74,110315,,,A*5B
$GPRMC,075528.000,A,5057.8353,N,01316.7682,E,26.04,302.85,110315,,,A*5C
$GPRMC,075529.000,A,5057.8396,N,01316.7584,E,25.63,303.50,110315,,,A*5A
$GPRMC,075530.000,A,5057.8440,N,01316.7488,E,25.96,304.54,110315,,,A*5A
$GPRMC,075530.000,A,5057.8440,N,01316.7488,E,25.96,304.54,110315,,,A*5A
$GPRMC,075531.000,A,5057.8481,N,01316.7393,E,25.90,304.56,110315,,,A*5F
$GPRMC,075532.000,A,5057.8522,N,01316.7295,E,25.95,304.05,110315,,,A*50
$GPRMC,075533.000,A,5057.8557,N,01316.7195,E,25.69,301.18,110315,,,A*5A
$GPRMC,075534.000,A,5057.8594,N,01316.7093,E,26.58,299.73,110315,,,A*59
$GPRMC,075535.000,A,5057.8634,N,01316.6992,E,26.61,301.55,110315,,,A*56
$GPRMC,075536.000,A,5057.8674,N,01316.6892,E,26.64,302.82,110315,,,A*5C
$GPRMC,075537.000,A,5057.8715,N,01316.6790,E,27.18,302.83,110315,,,A*5D
$GPRMC,075538.000,A,5057.8756,N,01316.6689,E,26.97,301.72,110315,,,A*57
$GPRMC,075539.000,A,5057.8796,N,01316.6587,E,27.17,301.69,110315,,,A*54
$GPRMC,075540.000,A,5057.8836,N,01316.6493,E,25.29,303.65,110315,,,A*5A
$GPRMC,075540.000,A,5057.8836,N,01316.6493,E,25.29,303.65,110315,,,A*5A
$GPRMC,075541.000,A,5057.8878,N,01316.6404,E,24.38,306.35,110315,,,A*5E
$GPRMC,075542.000,A,5057.8925,N,01316.6325,E,23.99,312.06,110315,,,A*59
$GPRMC,075543.000,A,5057.8980,N,01316.6261,E,22.86,320.46,110315,,,A*5C
$GPRMC,075544.000,A,5057.9041,N,01316.6211,E,22.80,330.15,110315,,,A*58
$GPRMC,075545.000,A,5057.9103,N,01316.6171,E,22.88,337.47,110315,,,A*53
$GPRMC,075546.000,A,5057.9171,N,01316.6143,E,23.49,345.26,110315,,,A*5A
$GPRMC,075547.000,A,5057.9244,N,01316.6129,E,24.50,352.47,110315,,,A*5C
$GPRMC,075548.000,A,5057.9323,N,01316.6126,E,25.91,356.58,110315,,,A*5A
$GPRMC,075549.000,A,5057.9400,N,01316.6125,E,25.39,357.64,110315,,,A*52
$GPRMC,075550.000,A,5057.9475,N,01316.6126,E,25.55,359.40,110315,,,A*59
$GPRMC,075550.000,A,5057.9475,N,01316.6126,E,25.55,359.40,110315,,,A*59
$GPRMC,075551.000,A,5057.9543,N,01316.6129,E,22.36,0.86,110315,,,A*54
$GPRMC,075552.000,A,5057.9597,N,01316.6131,E,17.13,359.11,110315,,,A*57
$GPRMC,075553.000,A,5057.9631,N,01316.6134,E,11.90,1.97,110315,,,A*51
$GPRMC,075554.000,A,5057.9651,N,01316.6138,E,7.75,7.58,110315,,,A*65
$GPRMC,075555.000,A,5057.9664,N,01316.6148,E,5.78,25.86,110315,,,A*59
$GPRMC,075556.000,A,5057.9672,N,01316.6157,E,4.35,26.44,110315,,,A*56
$GPRMC,075557.000,A,5057.9673,N,01316.6159,E,1.98,26.44,110315,,,A*5A
$GPRMC,075558.000,A,5057.9677,N,01316.6163,E,1.25,26.44,110315,,,A*5E
$GPRMC,075559.000,A,5057.9678,N,01316.6164,E,0.57,26.44,110315,,,A*53
$GPRMC,075600.000,A,5057.9680,N,01316.6167,E,0.37,26.44,110315,,,A*5E
$GPRMC,075600.000,A,5057.9680,N,01316.6167,E,0.37,26.44,110315,,,A*5E
$GPRMC,075601.000,A,5057.9680,N,01316.6168,E,0.43,26.44,110315,,,A*53
$GPRMC,075602.000,A,5057.9681,N,01316.6168,E,0.57,26.44,110315,,,A*54
$GPRMC,075603.000,A,5057.9682,N,01316.6166,E,0.00,26.44,110315,,,A*5A
$GPRMC,075604.000,A,5057.9682,N,01316.6166,E,0.00,26.44,110315,,,A*5D
$GPRMC,075605.000,A,5057.9682,N,01316.6166,E,0.00,26.44,110315,,,A*5C
$GPRMC,075606.000,A,5057.9682,N,01316.6166,E,0.00,26.44,110315,,,A*5F
$GPRMC,075607.000,A,5057.9682,N,01316.6166,E,0.00,26.44,110315,,,A*5E
$GPRMC,075608.000,A,5057.9682,N,01316.6166,E,0.00,26.44,110315,,,A*51
$GPRMC,075609.000,A,5057.9682,N,01316.6166,E,0.00,26.44,110315,,,A*50
$GPRMC,075610.000,A,5057.9679,N,01316.6166,E,0.00,26.44,110315,,,A*5C
$GPRMC,075610.000,A,5057.9679,N,01316.6166,E,0.00,26.44,110315,,,A*5C
$GPRMC,075611.000,A,5057.9678,N,01316.6165,E,0.60,351.24,110315,,,A*6C
$GPRMC,075612.000,A,5057.9683,N,01316.6164,E,2.96,351.58,110315,,,A*6A
$GPRMC,075613.000,A,5057.9696,N,01316.6160,E,5.54,348.44,110315,,,A*67
$GPRMC,075614.000,A,5057.9720,N,01316.6158,E,8.66,352.89,110315,,,A*61
$GPRMC,075615.000,A,5057.9750,N,01316.6153,E,11.26,355.20,110315,,,A*54
$GPRMC,075616.000,A,5057.9786,N,01316.6146,E,13.06,353.28,110315,,,A*56
$GPRMC,075617.000,A,5057.9828,N,01316.6140,E,15.17,353.14,110315,,,A*53
$GPRMC,075618.000,A,5057.9880,N,01316.6127,E,18.43,349.74,110315,,,A*5E
$GPRMC,075619.000,A,5057.9937,N,01316.6106,E,20.75,349.24,110315,,,A*5A
$GPRMC,075620.000,A,5057.9995,N,01316.6083,E,21.55,348.51,110315,,,A*54
$GPRMC,075620.000,A,5057.9995,N,01316.6083,E,21.55,348.51,110315,,,A*54
$GPRMC,075621.000,A,5058.0056,N,01316.6050,E,23.28,347.19,110315,,,A*50
$GPRMC,075622.000,A,5058.0120,N,01316.6011,E,25.23,346.08,110315,,,A*5A
$GPRMC,075623.000,A,5058.0193,N,01316.5965,E,28.64,338.06,110315,,,A*53
$GPRMC,075624.000,A,5058.0276,N,01316.5914,E,32.03,337.38,110315,,,A*52
$GPRMC,075625.000,A,5058.0362,N,01316.5856,E,33.74,336.37,110315,,,A*5F
$GPRMC,075626.000,A,5058.0447,N,01316.5794,E,33.76,335.27,110315,,,A*5D
$GPRMC,075627.000,A,5058.0531,N,01316.5731,E,33.77,335.42,110315,,,A*51
$GPRMC,075628.000,A,5058.0619,N,01316.5669,E,35.43,335.84,110315,,,A*50
$GPRMC,075629.000,A,5058.0711,N,01316.5606,E,35.65,336.94,110315,,,A*57
$GPRMC,075630.000,A,5058.0804,N,01316.5543,E,36.10,337.04,110315,,,A*5F
$GPRMC,075630.000,A,5058.0804,N,01316.5543,E,36.10,337.04,110315,,,A*5F
$GPRMC,075631.000,A,5058.0903,N,01316.5481,E,37.31,337.96,110315,,,A*5E
$GPRMC,075632.000,A,5058.1004,N,01316.5421,E,38.08,339.00,110315,,,A*5C
$GPRMC,075633.000,A,5058.1112,N,01316.5364,E,39.84,340.34,110315,,,A*51
$GPRMC,075634.000,A,5058.1218,N,01316.5304,E,40.26,340.14,110315,,,A*5D
$GPRMC,075635.000,A,5058.1330,N,01316.5245,E,40.50,340.81,110315,,,A*5E
$GPRMC,075636.000,A,5058.1444,N,01316.5188,E,41.16,342.20,110315,,,A*51
$GPRMC,075637.000,A,5058.1558,N,01316.5137,E,41.57,344.11,110315,,,A*59
$GPRMC,075638.000,A,5058.1673,N,01316.5094,E,41.84,345.88,110315,,,A*5B
$GPRMC,075639.000,A,5058.1790,N,01316.5056,E,41.94,347.49,110315,,,A*56
$GPRMC,075640.000,A,5058.1912,N,01316.5023,E,42.18,349.10,110315,,,A*5B
$GPRMC,075640.000,A,5058.1912,N,01316.5023,E,42.18,349.10,110315,,,A*5B
$GPRMC,075641.000,A,5058.2037,N,01316.4992,E,43.53,350.28,110315,,,A*58
$GPRMC,075642.000,A,5058.2161,N,01316.4965,E,44.13,351.81,110315,,,A*50
$GPRMC,075643.000,A,5058.2285,N,01316.4941,E,44.08,352.92,110315,,,A*55
$GPRMC,075644.000,A,5058.2409,N,01316.4919,E,44.50,353.66,110315,,,A*5A
$GPRMC,075645.000,A,5058.2537,N,01316.4900,E,45.53,354.45,110315,,,A*5B
$GPRMC,075646.000,A,5058.2664,N,01316.4882,E,45.79,355.05,110315,,,A*5B
$GPRMC,075647.000,A,5058.2789,N,01316.4866,E,45.25,355.25,110315,,,A*59
$GPRMC,075648.000,A,5058.2916,N,01316.4849,E,45.53,355.44,110315,,,A*55
$GPRMC,075649.000,A,5058.3043,N,01316.4832,E,45.36,354.96,110315,,,A*5D
$GPRMC,075650.000,A,5058.3171,N,01316.4816,E,45.73,355.23,110315,,,A*5D
$GPRMC,075650.000,A,5058.3171,N,01316.4816,E,45.73,355.23,110315,,,A*5D
$GPRMC,075651.000,A,5058.3300,N,01316.4801,E,45.57,355.39,110315,,,A*53
$GPRMC,075652.000,A,5058.3431,N,01316.4783,E,46.81,354.75,110315,,,A*51
$GPRMC,075653.000,A,5058.3563,N,01316.4767,E,46.81,354.75,110315,,,A*5C
$GPRMC,075654.000,A,5058.3695,N,01316.4749,E,46.84,354.83,110315,,,A*51
$GPRMC,075655.000,A,5058.3827,N,01316.4730,E,47.35,354.96,110315,,,A*56
$GPRMC,075656.000,A,5058.3958,N,01316.4711,E,47.38,354.85,110315,,,A*50
$GPRMC,075657.000,A,5058.4088,N,01316.4692,E,47.54,355.02,110315,,,A*5C
$GPRMC,075658.000,A,5058.4218,N,01316.4673,E,47.52,354.69,110315,,,A*5D
$GPRMC,075659.000,A,5058.4350,N,01316.4655,E,47.63,354.45,110315,,,A*59
$GPRMC,075700.000,A,5058.4481,N,01316.4636,E,47.67,353.87,110315,,,A*57
$GPRMC,075700.000,A,5058.4481,N,01316.4636,E,47.67,353.87,110315,,,A*57
$GPRMC,075701.000,A,5058.4614,N,01316.4618,E,47.39,354.60,110315,,,A*51
$GPRMC,075702.000,A,5058.4750,N,01316.4601,E,49.17,355.85,110315,,,A*53
$GPRMC,075703.000,A,5058.4885,N,01316.4588,E,48.44,357.20,110315,,,A*5D
$GPRMC,075704.000,A,5058.5018,N,01316.4580,E,48.69,358.08,110315,,,A*55
$GPRMC,075705.000,A,5058.5154,N,01316.4576,E,48.91,359.01,110315,,,A*5B
$GPRMC,075706.000,A,5058.5289,N,01316.4576,E,49.09,359.88,110315,,,A*5A
$GPRMC,075707.000,A,5058.5429,N,01316.4582,E,49.21,1.44,110315,,,A*58
$GPRMC,075708.000,A,5058.5570,N,01316.4592,E,49.14,3.00,110315,,,A*5F
$GPRMC,075709.000,A,5058.5711,N,01316.4605,E,49.34,4.46,110315,,,A*51
$GPRMC,075710.000,A,5058.5851,N,01316.4627,E,50.33,6.16,110315,,,A*5A
$GPRMC,075710.000,A,5058.5851,N,01316.4627,E,50.33,6.16,110315,,,A*5A
$GPRMC,075711.000,A,5058.5996,N,01316.4658,E,52.31,8.14,110315,,,A*55
$GPRMC,075712.000,A,5058.6143,N,01316.4695,E,53.28,9.23,110315,,,A*58
$GPRMC,075713.000,A,5058.6285,N,01316.4737,E,51.88,10.38,110315,,,A*63
$GPRMC,075714.000,A,5058.6425,N,01316.4780,E,52.91,11.02,110315,,,A*67
$GPRMC,075715.000,A,5058.6564,N,01316.4822,E,48.66,11.10,110315,,,A*65
$GPRMC,075716.000,A,5058.6703,N,01316.4867,E,49.15,11.75,110315,,,A*62
$GPRMC,075717.000,A,5058.6841,N,01316.4913,E,50.57,12.00,110315,,,A*67
$GPRMC,075718.000,A,5058.6979,N,01316.4962,E,50.80,12.38,110315,,,A*65
$GPRMC,075719.000,A,5058.7114,N,01316.5011,E,50.04,12.48,110315,,,A*61
$GPRMC,075720.000,A,5058.7248,N,01316.5058,E,49.05,12.36,110315,,,A*6C
$GPRMC,075720.000,A,5058.7248,N,01316.5058,E,49.05,12.36,110315,,,A*6C
$GPRMC,075721.000,A,5058.7379,N,01316.5105,E,47.77,13.10,110315,,,A*69
$GPRMC,075722.000,A,5058.7508,N,01316.5155,E,46.92,13.16,110315,,,A*63
$GPRMC,075723.000,A,5058.7632,N,01316.5202,E,44.96,12.64,110315,,,A*6B
$GPRMC,075724.000,A,5058.7757,N,01316.5246,E,43.84,11.64,110315,,,A*69
$GPRMC,075725.000,A,5058.7876,N,01316.5285,E,42.30,11.41,110315,,,A*62
$GPRMC,075726.000,A,5058.7993,N,01316.5323,E,41.85,11.57,110315,,,A*6C
$GPRMC,075727.000,A,5058.8108,N,01316.5357,E,41.49,10.37,110315,,,A*6C
$GPRMC,075728.000,A,5058.8225,N,01316.5384,E,41.56,8.25,110315,,,A*55
$GPRMC,075729.000,A,5058.8344,N,01316.5402,E,41.51,4.69,110315,,,A*58
$GPRMC,075730.000,A,5058.8455,N,01316.5413,E,40.07,1.73,110315,,,A*5B
$GPRMC,075730.000,A,5058.8455,N,01316.5413,E,40.07,1.73,110315,,,A*5B
$GPRMC,075731.000,A,5058.8564,N,01316.5416,E,39.31,0.04,110315,,,A*56
$GPRMC,075732.000,A,5058.8674,N,01316.5412,E,39.94,358.32,110315,,,A*57
$GPRMC,075733.000,A,5058.8783,N,01316.5399,E,39.96,355.48,110315,,,A*59
$GPRMC,075734.000,A,5058.8889,N,01316.5379,E,39.96,353.24,110315,,,A*59
$GPRMC,075735.000,A,5058.8995,N,01316.5350,E,39.62,350.46,110315,,,A*53
$GPRMC,075736.000,A,5058.9101,N,01316.5312,E,39.82,347.63,110315,,,A*5D
$GPRMC,075737.000,A,5058.9206,N,01316.5263,E,39.88,344.83,110315,,,A*58
$GPRMC,075738.000,A,5058.9306,N,01316.5201,E,39.75,340.41,110315,,,A*5A
$GPRMC,075739.000,A,5058.9405,N,01316.5131,E,39.11,337.84,110315,,,A*54
$GPRMC,075740.000,A,5058.9502,N,01316.5058,E,39.38,336.20,110315,,,A*56
$GPRMC,075740.000,A,5058.9502,N,01316.5058,E,39.38,336.20,110315,,,A*56
$GPRMC,075741.000,A,5058.9595,N,01316.4979,E,38.25,335.31,110315,,,A*5C
$GPRMC,075742.000,A,5058.9688,N,01316.4902,E,38.60,334.50,110315,,,A*5B
$GPRMC,075743.000,A,5058.9777,N,01316.4825,E,38.00,332.80,110315,,,A*52
$GPRMC,075744.000,A,5058.9870,N,01316.4746,E,38.00,333.22,110315,,,A*5E
$GPRMC,075745.000,A,5058.9963,N,01316.4670,E,37.84,333.30,110315,,,A*58
$GPRMC,075746.000,A,5059.0055,N,01316.4595,E,36.61,333.01,110315,,,A*5F
$GPRMC,075747.000,A,5059.0145,N,01316.4523,E,36.04,334.31,110315,,,A*54
$GPRMC,075748.000,A,5059.0239,N,01316.4458,E,36.32,337.00,110315,,,A*5A
$GPRMC,075749.000,A,5059.0334,N,01316.4402,E,36.16,340.93,110315,,,A*54
$GPRMC,075750.000,A,5059.0432,N,01316.4356,E,35.82,344.51,110315,,,A*5F
$GPRMC,075750.000,A,5059.0432,N,01316.4356,E,35.82,344.51,110315,,,A*5F
$GPRMC,075751.000,A,5059.0532,N,01316.4320,E,35.72,348.31,110315,,,A*5B
$GPRMC,075752.000,A,5059.0631,N,01316.4295,E,35.76,352.19,110315,,,A*52
$GPRMC,075753.000,A,5059.0734,N,01316.4282,E,35.80,355.71,110315,,,A*51
$GPRMC,075754.000,A,5059.0840,N,01316.4280,E,35.82,358.93,110315,,,A*5B
$GPRMC,075755.000,A,5059.0946,N,01316.4290,E,37.75,3.59,110315,,,A*5D
$GPRMC,075756.000,A,5059.1053,N,01316.4311,E,38.75,7.39,110315,,,A*57
$GPRMC,075757.000,A,5059.1161,N,01316.4343,E,38.25,10.95,110315,,,A*64
$GPRMC,075758.000,A,5059.1268,N,01316.4383,E,39.91,13.21,110315,,,A*6F
$GPRMC,075759.000,A,5059.1376,N,01316.4432,E,39.94,16.47,110315,,,A*6D
$GPRMC,075800.000,A,5059.1482,N,01316.4492,E,40.32,19.30,110315,,,A*65
$GPRMC,075800.000,A,5059.1482,N,01316.4492,E,40.32,19.30,110315,,,A*65
$GPRMC,075801.000,A,5059.1588,N,01316.4555,E,40.44,21.00,110315,,,A*6C
$GPRMC,075802.000,A,5059.1693,N,01316.4623,E,40.61,22.54,110315,,,A*61
$GPRMC,075803.000,A,5059.1797,N,01316.4693,E,40.82,22.88,110315,,,A*62
$GPRMC,075804.000,A,5059.1903,N,01316.4763,E,40.83,22.72,110315,,,A*6C
$GPRMC,075805.000,A,5059.2002,N,01316.4844,E,40.42,25.05,110315,,,A*66
$GPRMC,075806.000,A,5059.2099,N,01316.4928,E,39.73,27.26,110315,,,A*63
$GPRMC,075807.000,A,5059.2195,N,01316.5008,E,39.19,26.96,110315,,,A*63
$GPRMC,075808.000,A,5059.2291,N,01316.5086,E,39.40,27.12,110315,,,A*6C
$GPRMC,075809.000,A,5059.2385,N,01316.5162,E,37.79,26.08,110315,,,A*6C
$GPRMC,075810.000,A,5059.2477,N,01316.5237,E,38.08,26.15,110315,,,A*68
$GPRMC,075810.000,A,5059.2477,N,01316.5237,E,38.08,26.15,110315,,,A*68
$GPRMC,075811.000,A,5059.2568,N,01316.5310,E,37.65,27.18,110315,,,A*6A
$GPRMC,075812.000,A,5059.2655,N,01316.5380,E,34.66,27.02,110315,,,A*66
$GPRMC,075813.000,A,5059.2743,N,01316.5449,E,35.67,26.11,110315,,,A*60
$GPRMC,075814.000,A,5059.2831,N,01316.5515,E,35.08,25.83,110315,,,A*64
$GPRMC,075815.000,A,5059.2919,N,01316.5583,E,34.81,26.85,110315,,,A*64
$GPRMC,075816.000,A,5059.3006,N,01316.5650,E,34.50,26.17,110315,,,A*6B
$GPRMC,075817.000,A,5059.3093,N,01316.5714,E,33.90,25.08,110315,,,A*61
$GPRMC,075818.000,A,5059.3180,N,01316.5778,E,33.69,25.30,110315,,,A*6A
$GPRMC,075819.000,A,5059.3261,N,01316.5845,E,33.56,26.72,110315,,,A*6F
$GPRMC,075820.000,A,5059.3341,N,01316.5910,E,32.01,26.59,110315,,,A*6D
$GPRMC,075820.000,A,5059.3341,N,01316.5910,E,32.01,26.59,110315,,,A*6D
$GPRMC,075821.000,A,5059.3421,N,01316.5971,E,31.83,25.43,110315,,,A*6B
$GPRMC,075822.000,A,5059.3501,N,01316.6026,E,31.26,23.20,110315,,,A*6F
$GPRMC,075823.000,A,5059.3581,N,01316.6076,E,31.18,21.22,110315,,,A*6E
$GPRMC,075824.000,A,5059.3659,N,01316.6121,E,29.98,18.59,110315,,,A*6B
$GPRMC,075825.000,A,5059.3737,N,01316.6158,E,29.82,15.46,110315,,,A*65
$GPRMC,075826.000,A,5059.3816,N,01316.6186,E,29.77,10.84,110315,,,A*68
$GPRMC,075827.000,A,5059.3891,N,01316.6206,E,29.39,6.96,110315,,,A*53
$GPRMC,075828.000,A,5059.3965,N,01316.6218,E,27.45,3.28,110315,,,A*5C
$GPRMC,075829.000,A,5059.4037,N,01316.6227,E,27.05,1.32,110315,,,A*55
$GPRMC,075830.000,A,5059.4112,N,01316.6229,E,27.00,359.49,110315,,,A*52
$GPRMC,075830.000,A,5059.4112,N,01316.6229,E,27.00,359.49,110315,,,A*52
$GPRMC,075831.000,A,5059.4186,N,01316.6231,E,26.99,0.63,110315,,,A*51
$GPRMC,075832.000,A,5059.4258,N,01316.6235,E,25.89,2.10,110315,,,A*52
$GPRMC,075833.000,A,5059.4330,N,01316.6241,E,25.36,5.62,110315,,,A*59
$GPRMC,075834.000,A,5059.4405,N,01316.6252,E,25.64,6.41,110315,,,A*58
$GPRMC,075835.000,A,5059.4478,N,01316.6268,E,25.47,10.15,110315,,,A*6D
$GPRMC,075836.000,A,5059.4552,N,01316.6291,E,27.18,12.10,110315,,,A*6E
$GPRMC,075837.000,A,5059.4623,N,01316.6320,E,27.12,14.74,110315,,,A*6F
$GPRMC,075838.000,A,5059.4694,N,01316.6354,E,27.49,17.82,110315,,,A*6B
$GPRMC,075839.000,A,5059.4764,N,01316.6399,E,28.02,21.21,110315,,,A*69
$GPRMC,075840.000,A,5059.4831,N,01316.6453,E,28.10,24.96,110315,,,A*63
$GPRMC,075840.000,A,5059.4831,N,01316.6453,E,28.10,24.96,110315,,,A*63
$GPRMC,075841.000,A,5059.4901,N,01316.6513,E,28.42,27.32,110315,,,A*6F
$GPRMC,075842.000,A,5059.4970,N,01316.6577,E,29.94,28.17,110315,,,A*6A
$GPRMC,075843.000,A,5059.5042,N,01316.6641,E,30.59,28.12,110315,,,A*68
$GPRMC,075844.000,A,5059.5116,N,01316.6707,E,30.60,27.87,110315,,,A*65
$GPRMC,075845.000,A,5059.5191,N,01316.6773,E,30.33,28.46,110315,,,A*6C
$GPRMC,075846.000,A,5059.5267,N,01316.6835,E,30.95,26.93,110315,,,A*62
$GPRMC,075847.000,A,5059.5346,N,01316.6894,E,31.11,24.94,110315,,,A*62
$GPRMC,075848.000,A,5059.5427,N,01316.6951,E,31.07,23.67,110315,,,A*69
$GPRMC,075849.000,A,5059.5509,N,01316.7008,E,31.20,23.49,110315,,,A*68
$GPRMC,075850.000,A,5059.5592,N,01316.7062,E,31.39,22.46,110315,,,A*68
$GPRMC,075850.000,A,5059.5592,N,01316.7062,E,31.39,22.46,110315,,,A*68
$GPRMC,075851.000,A,5059.5676,N,01316.7115,E,31.54,22.79,110315,,,A*66
$GPRMC,075852.000,A,5059.5760,N,01316.7167,E,31.62,21.19,110315,,,A*66
$GPRMC,075853.000,A,5059.5845,N,01316.7221,E,33.55,22.08,110315,,,A*6B
$GPRMC,075854.000,A,5059.5931,N,01316.7278,E,34.03,23.07,110315,,,A*68
$GPRMC,075855.000,A,5059.6019,N,01316.7338,E,34.64,23.20,110315,,,A*68
$GPRMC,075856.000,A,5059.6109,N,01316.7397,E,35.06,22.84,110315,,,A*64
$GPRMC,075857.000,A,5059.6199,N,01316.7457,E,35.35,22.23,110315,,,A*6A
$GPRMC,075858.000,A,5059.6290,N,01316.7517,E,36.01,22.58,110315,,,A*62
$GPRMC,075859.000,A,5059.6380,N,01316.7578,E,35.53,22.36,110315,,,A*66
$GPRMC,075900.000,A,5059.6471,N,01316.7639,E,35.96,23.41,110315,,,A*6C
$GPRMC,075900.000,A,5059.6471,N,01316.7639,E,35.96,23.41,110315,,,A*6C
$GPRMC,075901.000,A,5059.6564,N,01316.7701,E,36.52,23.08,110315,,,A*64
$GPRMC,075902.000,A,5059.6658,N,01316.7764,E,36.38,22.92,110315,,,A*66
$GPRMC,075903.000,A,5059.6753,N,01316.7827,E,36.50,22.93,110315,,,A*6A
$GPRMC,075904.000,A,5059.6848,N,01316.7889,E,36.63,22.72,110315,,,A*63
$GPRMC,075905.000,A,5059.6943,N,01316.7952,E,36.85,21.60,110315,,,A*67
$GPRMC,075906.000,A,5059.7040,N,01316.8013,E,37.92,21.55,110315,,,A*6D
$GPRMC,075907.000,A,5059.7139,N,01316.8074,E,38.42,20.82,110315,,,A*6B
$GPRMC,075908.000,A,5059.7237,N,01316.8133,E,38.78,20.49,110315,,,A*65
$GPRMC,075909.000,A,5059.7338,N,01316.8195,E,39.57,20.84,110315,,,A*6B
$GPRMC,075910.000,A,5059.7437,N,01316.8262,E,39.83,22.52,110315,,,A*60
$GPRMC,075910.000,A,5059.7437,N,01316.8262,E,39.83,22.52,110315,,,A*60
$GPRMC,075911.000,A,5059.7534,N,01316.8335,E,39.49,24.91,110315,,,A*6F
$GPRMC,075912.000,A,5059.7630,N,01316.8416,E,40.23,27.76,110315,,,A*65
$GPRMC,075913.000,A,5059.7724,N,01316.8503,E,40.20,29.72,110315,,,A*6C
$GPRMC,075914.000,A,5059.7818,N,01316.8595,E,40.59,30.09,110315,,,A*6E
$GPRMC,075915.000,A,5059.7915,N,01316.8687,E,40.54,30.10,110315,,,A*66
$GPRMC,075916.000,A,5059.8015,N,01316.8779,E,41.57,30.09,110315,,,A*69
$GPRMC,075917.000,A,5059.8116,N,01316.8871,E,41.92,29.50,110315,,,A*60
$GPRMC,075918.000,A,5059.8217,N,01316.8961,E,41.51,28.11,110315,,,A*66
$GPRMC,075919.000,A,5059.8320,N,01316.9047,E,41.28,27.62,110315,,,A*6B
$GPRMC,075920.000,A,5059.8422,N,01316.9128,E,40.73,26.38,110315,,,A*6D
$GPRMC,075920.000,A,5059.8422,N,01316.9128,E,40.73,26.38,110315,,,A*6D
$GPRMC,075921.000,A,5059.8523,N,01316.9207,E,40.76,25.19,110315,,,A*67
$GPRMC,075922.000,A,5059.8624,N,01316.9283,E,41.28,23.89,110315,,,A*69
$GPRMC,075923.000,A,5059.8730,N,01316.9356,E,41.01,23.43,110315,,,A*68
$GPRMC,075924.000,A,5059.8835,N,01316.9427,E,40.63,23.88,110315,,,A*66
$GPRMC,075925.000,A,5059.8939,N,01316.9500,E,39.91,24.50,110315,,,A*6F
$GPRMC,075926.000,A,5059.9039,N,01316.9574,E,39.23,25.86,110315,,,A*64
$GPRMC,075927.000,A,5059.9138,N,01316.9655,E,39.60,28.65,110315,,,A*62
$GPRMC,075928.000,A,5059.9235,N,01316.9746,E,39.29,31.45,110315,,,A*67
$GPRMC,075929.000,A,5059.9326,N,01316.9849,E,39.15,35.31,110315,,,A*6D
$GPRMC,075930.000,A,5059.9413,N,01316.9960,E,39.10,38.17,110315,,,A*62
$GPRMC,075930.000,A,5059.9413,N,01316.9960,E,39.10,38.17,110315,,,A*62
$GPRMC,075931.000,A,5059.9496,N,01317.0076,E,39.17,40.38,110315,,,A*6D
$GPRMC,075932.000,A,5059.9578,N,01317.0198,E,39.23,41.89,110315,,,A*62
$GPRMC,075933.000,A,5059.9659,N,01317.0326,E,41.23,43.62,110315,,,A*6C
$GPRMC,075934.000,A,5059.9737,N,01317.0459,E,40.34,45.99,110315,,,A*68
$GPRMC,075935.000,A,5059.9815,N,01317.0593,E,40.65,47.67,110315,,,A*66
$GPRMC,075936.000,A,5059.9890,N,01317.0732,E,41.45,49.47,110315,,,A*6E
$GPRMC,075937.000,A,5059.9963,N,01317.0873,E,41.39,50.13,110315,,,A*6A
$GPRMC,075938.000,A,5100.0037,N,01317.1016,E,41.56,50.35,110315,,,A*6E
$GPRMC,075939.000,A,5100.0111,N,01317.1160,E,41.53,50.18,110315,,,A*60
$GPRMC,075940.000,A,5100.0186,N,01317.1303,E,41.78,50.17,110315,,,A*61
$GPRMC,075940.000,A,5100.0186,N,01317.1303,E,41.78,50.17,110315,,,A*61
$GPRMC,075941.000,A,5100.0260,N,01317.1444,E,41.81,49.75,110315,,,A*65
$GPRMC,075942.000,A,5100.0336,N,01317.1583,E,41.80,49.69,110315,,,A*62
$GPRMC,075943.000,A,5100.0410,N,01317.1725,E,41.85,49.97,110315,,,A*6A
$GPRMC,075944.000,A,5100.0485,N,01317.1869,E,41.92,51.00,110315,,,A*67
$GPRMC,075945.000,A,5100.0561,N,01317.2016,E,42.00,50.95,110315,,,A*6B
$GPRMC,075946.000,A,5100.0634,N,01317.2167,E,43.14,53.47,110315,,,A*64
$GPRMC,075947.000,A,5100.0703,N,01317.2322,E,42.61,55.73,110315,,,A*61
$GPRMC,075948.000,A,5100.0770,N,01317.2481,E,42.81,57.99,110315,,,A*6C
$GPRMC,075949.000,A,5100.0832,N,01317.2640,E,42.93,59.00,110315,,,A*66
$GPRMC,075950.000,A,5100.0888,N,01317.2800,E,42.99,60.33,110315,,,A*65
$GPRMC,075950.000,A,5100.0888,N,01317.2800,E,42.99,60.33,110315,,,A*65
$GPRMC,075951.000,A,5100.0944,N,01317.2962,E,42.95,60.90,110315,,,A*65
$GPRMC,075952.000,A,5100.0997,N,01317.3125,E,42.80,62.48,110315,,,A*61
$GPRMC,075953.000,A,5100.1049,N,01317.3288,E,42.80,63.23,110315,,,A*63
$GPRMC,075954.000,A,5100.1100,N,01317.3448,E,42.61,62.99,110315,,,A*6D
$GPRMC,075955.000,A,5100.1151,N,01317.3603,E,39.56,62.26,110315,,,A*69
$GPRMC,075956.000,A,5100.1206,N,01317.3754,E,40.84,58.54,110315,,,A*65
$GPRMC,075957.000,A,5100.1267,N,01317.3897,E,40.36,53.30,110315,,,A*63
$GPRMC,075958.000,A,5100.1334,N,01317.4030,E,39.92,48.69,110315,,,A*6F
$GPRMC,075959.000,A,5100.1410,N,01317.4155,E,39.58,43.99,110315,,,A*6F
$GPRMC,080000.000,A,5100.1489,N,01317.4274,E,39.41,43.40,110315,,,A*6C
$GPRMC,080000.000,A,5100.1489,N,01317.4274,E,39.41,43.40,110315,,,A*6C
$GPRMC,080001.000,A,5100.1568,N,01317.4393,E,39.51,44.41,110315,,,A*6C
$GPRMC,080002.000,A,5100.1643,N,01317.4515,E,39.16,47.50,110315,,,A*6D
$GPRMC,080003.000,A,5100.1714,N,01317.4643,E,39.06,50.11,110315,,,A*6D
$GPRMC,080004.000,A,5100.1782,N,01317.4776,E,39.03,51.38,110315,,,A*6D
$GPRMC,080005.000,A,5100.1849,N,01317.4913,E,39.00,53.14,110315,,,A*66
$GPRMC,080006.000,A,5100.1913,N,01317.5051,E,38.95,54.11,110315,,,A*6A
$GPRMC,080007.000,A,5100.1979,N,01317.5189,E,38.93,53.65,110315,,,A*61
$GPRMC,080008.000,A,5100.2049,N,01317.5324,E,38.96,51.08,110315,,,A*6E
$GPRMC,080009.000,A,5100.2123,N,01317.5454,E,39.44,47.36,110315,,,A*66
$GPRMC,080010.000,A,5100.2201,N,01317.5577,E,39.24,43.75,110315,,,A*68
$GPRMC,080010.000,A,5100.2201,N,01317.5577,E,39.24,43.75,110315,,,A*68
$GPRMC,080011.000,A,5100.2285,N,01317.5692,E,39.37,39.11,110315,,,A*60
$GPRMC,080012.000,A,5100.2375,N,01317.5800,E,39.47,36.45,110315,,,A*61
$GPRMC,080013.000,A,5100.2467,N,01317.5897,E,39.56,32.55,110315,,,A*6F
$GPRMC,080014.000,A,5100.2564,N,01317.5984,E,39.88,29.60,110315,,,A*66
$GPRMC,080015.000,A,5100.2666,N,01317.6060,E,39.60,26.38,110315,,,A*62
$GPRMC,080016.000,A,5100.2765,N,01317.6131,E,39.72,24.02,110315,,,A*6E
$GPRMC,080017.000,A,5100.2863,N,01317.6198,E,38.71,23.39,110315,,,A*68
$GPRMC,080018.000,A,5100.2962,N,01317.6261,E,39.13,23.08,110315,,,A*65
$GPRMC,080019.000,A,5100.3060,N,01317.6321,E,37.55,22.72,110315,,,A*6B
$GPRMC,080020.000,A,5100.3156,N,01317.6383,E,36.98,23.36,110315,,,A*6C
$GPRMC,080020.000,A,5100.3156,N,01317.6383,E,36.98,23.36,110315,,,A*6C
$GPRMC,080021.000,A,5100.3252,N,01317.6444,E,36.56,23.59,110315,,,A*6D
$GPRMC,080022.000,A,5100.3346,N,01317.6506,E,36.47,23.66,110315,,,A*61
$GPRMC,080023.000,A,5100.3440,N,01317.6567,E,36.72,22.95,110315,,,A*6D
$GPRMC,080024.000,A,5100.3533,N,01317.6627,E,37.02,22.47,110315,,,A*61
$GPRMC,080025.000,A,5100.3628,N,01317.6689,E,37.59,23.03,110315,,,A*62
$GPRMC,080026.000,A,5100.3723,N,01317.6751,E,37.57,22.88,110315,,,A*63
$GPRMC,080027.000,A,5100.3820,N,01317.6813,E,37.64,23.29,110315,,,A*6D
$GPRMC,080028.000,A,5100.3917,N,01317.6875,E,37.81,22.99,110315,,,A*66
$GPRMC,080029.000,A,5100.4011,N,01317.6937,E,37.86,22.58,110315,,,A*62
$GPRMC,080030.000,A,5100.4106,N,01317.6998,E,36.70,23.10,110315,,,A*6D
$GPRMC,080030.000,A,5100.4106,N,01317.6998,E,36.70,23.10,110315,,,A*6D
$GPRMC,080031.000,A,5100.4200,N,01317.7057,E,36.18,22.91,110315,,,A*64
$GPRMC,080032.000,A,5100.4291,N,01317.7116,E,34.98,23.54,110315,,,A*69
$GPRMC,080033.000,A,5100.4381,N,01317.7173,E,34.93,22.15,110315,,,A*64
$GPRMC,080034.000,A,5100.4470,N,01317.7231,E,35.00,22.53,110315,,,A*66
$GPRMC,080035.000,A,5100.4558,N,01317.7290,E,34.14,23.22,110315,,,A*64
$GPRMC,080036.000,A,5100.4643,N,01317.7349,E,32.87,24.65,110315,,,A*63
$GPRMC,080037.000,A,5100.4728,N,01317.7404,E,33.29,23.81,110315,,,A*68
$GPRMC,080038.000,A,5100.4812,N,01317.7459,E,33.05,22.89,110315,,,A*6E
$GPRMC,080039.000,A,5100.4895,N,01317.7514,E,32.70,22.91,110315,,,A*62
$GPRMC,080040.000,A,5100.4975,N,01317.7566,E,31.57,21.91,110315,,,A*63
$GPRMC,080040.000,A,5100.4975,N,01317.7566,E,31.57,21.91,110315,,,A*63
$GPRMC,080041.000,A,5100.5055,N,01317.7617,E,31.11,22.12,110315,,,A*67
$GPRMC,080042.000,A,5100.5133,N,01317.7670,E,30.83,23.26,110315,,,A*68
$GPRMC,080043.000,A,5100.5211,N,01317.7721,E,30.51,22.67,110315,,,A*64
$GPRMC,080044.000,A,5100.5287,N,01317.7772,E,30.35,22.24,110315,,,A*6F
$GPRMC,080045.000,A,5100.5362,N,01317.7823,E,30.10,22.82,110315,,,A*64
$GPRMC,080046.000,A,5100.5441,N,01317.7874,E,30.08,22.87,110315,,,A*6F
$GPRMC,080047.000,A,5100.5520,N,01317.7927,E,30.07,22.78,110315,,,A*60
$GPRMC,080048.000,A,5100.5600,N,01317.7979,E,31.37,21.98,110315,,,A*6A
$GPRMC,080049.000,A,5100.5676,N,01317.8030,E,30.70,22.21,110315,,,A*62
$GPRMC,080050.000,A,5100.5752,N,01317.8082,E,30.20,23.03,110315,,,A*60
$GPRMC,080050.000,A,5100.5752,N,01317.8082,E,30.20,23.03,110315,,,A*60
$GPRMC,080051.000,A,5100.5828,N,01317.8135,E,29.93,23.44,110315,,,A*6D
$GPRMC,080052.000,A,5100.5906,N,01317.8188,E,31.24,22.52,110315,,,A*66
$GPRMC,080053.000,A,5100.5985,N,01317.8242,E,30.67,23.26,110315,,,A*6D
$GPRMC,080054.000,A,5100.6065,N,01317.8298,E,30.60,24.31,110315,,,A*6F
$GPRMC,080055.000,A,5100.6141,N,01317.8358,E,30.76,26.83,110315,,,A*68
$GPRMC,080056.000,A,5100.6214,N,01317.8424,E,30.29,29.71,110315,,,A*6C
$GPRMC,080057.000,A,5100.6282,N,01317.8494,E,29.87,32.41,110315,,,A*6C
$GPRMC,080058.000,A,5100.6345,N,01317.8571,E,28.85,35.36,110315,,,A*67
$GPRMC,080059.000,A,5100.6408,N,01317.8649,E,29.14,36.38,110315,,,A*64
$GPRMC,080100.000,A,5100.6468,N,01317.8729,E,29.16,36.99,110315,,,A*61
$GPRMC,080100.000,A,5100.6468,N,01317.8729,E,29.16,36.99,110315,,,A*61
$GPRMC,080101.000,A,5100.6527,N,01317.8810,E,28.78,37.94,110315,,,A*6A
$GPRMC,080102.000,A,5100.6586,N,01317.8891,E,28.68,38.49,110315,,,A*65
$GPRMC,080103.000,A,5100.6648,N,01317.8973,E,28.42,38.79,110315,,,A*63
$GPRMC,080104.000,A,5100.6706,N,01317.9054,E,28.77,38.64,110315,,,A*68
$GPRMC,080105.000,A,5100.6765,N,01317.9136,E,28.97,39.34,110315,,,A*63
$GPRMC,080106.000,A,5100.6825,N,01317.9218,E,28.72,38.90,110315,,,A*60
$GPRMC,080107.000,A,5100.6885,N,01317.9299,E,28.80,39.72,110315,,,A*62
$GPRMC,080108.000,A,5100.6945,N,01317.9382,E,28.92,39.90,110315,,,A*64
$GPRMC,080109.000,A,5100.7005,N,01317.9465,E,28.95,40.37,110315,,,A*63
$GPRMC,080110.000,A,5100.7065,N,01317.9548,E,28.95,40.72,110315,,,A*62
$GPRMC,080110.000,A,5100.7065,N,01317.9548,E,28.95,40.72,110315,,,A*62
$GPRMC,080111.000,A,5100.7125,N,01317.9633,E,28.97,42.22,110315,,,A*6C
$GPRMC,080112.000,A,5100.7186,N,01317.9721,E,29.06,42.59,110315,,,A*61
$GPRMC,080113.000,A,5100.7246,N,01317.9808,E,28.87,42.26,110315,,,A*6B
$GPRMC,080114.000,A,5100.7303,N,01317.9892,E,28.32,41.79,110315,,,A*68
$GPRMC,080115.000,A,5100.7361,N,01317.9975,E,27.62,42.64,110315,,,A*60
$GPRMC,080116.000,A,5100.7416,N,01318.0057,E,26.83,44.08,110315,,,A*69
$GPRMC,080117.000,A,5100.7469,N,01318.0140,E,27.11,43.28,110315,,,A*68
$GPRMC,080118.000,A,5100.7523,N,01318.0221,E,26.44,43.47,110315,,,A*64
$GPRMC,080119.000,A,5100.7577,N,01318.0303,E,26.39,44.05,110315,,,A*6E
$GPRMC,080120.000,A,5100.7629,N,01318.0385,E,26.36,43.56,110315,,,A*6C
$GPRMC,080120.000,A,5100.7629,N,01318.0385,E,26.36,43.56,110315,,,A*6C
$GPRMC,080121.000,A,5100.7683,N,01318.0466,E,26.28,43.45,110315,,,A*6A
$GPRMC,080122.000,A,5100.7738,N,01318.0545,E,25.91,42.64,110315,,,A*6B
$GPRMC,080123.000,A,5100.7792,N,01318.0619,E,25.75,39.83,110315,,,A*6F
$GPRMC,080124.000,A,5100.7847,N,01318.0691,E,25.38,38.51,110315,,,A*68
$GPRMC,080125.000,A,5100.7902,N,01318.0758,E,24.53,35.95,110315,,,A*64
$GPRMC,080126.000,A,5100.7959,N,01318.0819,E,24.90,32.86,110315,,,A*69
$GPRMC,080127.000,A,5100.8019,N,01318.0874,E,25.24,29.22,110315,,,A*6B
$GPRMC,080128.000,A,5100.8083,N,01318.0924,E,25.85,25.84,110315,,,A*68
$GPRMC,080129.000,A,5100.8150,N,01318.0971,E,26.18,23.35,110315,,,A*6D
$GPRMC,080130.000,A,5100.8218,N,01318.1018,E,26.14,24.08,110315,,,A*68
$GPRMC,080130.000,A,5100.8218,N,01318.1018,E,26.14,24.08,110315,,,A*68
$GPRMC,080131.000,A,5100.8287,N,01318.1066,E,26.59,24.37,110315,,,A*63
$GPRMC,080132.000,A,5100.8356,N,01318.1114,E,26.63,24.11,110315,,,A*64
$GPRMC,080133.000,A,5100.8426,N,01318.1162,E,26.91,23.62,110315,,,A*6A
$GPRMC,080134.000,A,5100.8498,N,01318.1210,E,27.75,24.44,110315,,,A*66
$GPRMC,080135.000,A,5100.8570,N,01318.1259,E,28.30,23.77,110315,,,A*64
$GPRMC,080136.000,A,5100.8644,N,01318.1310,E,28.74,24.49,110315,,,A*65
$GPRMC,080137.000,A,5100.8719,N,01318.1363,E,28.70,25.92,110315,,,A*6A
$GPRMC,080138.000,A,5100.8793,N,01318.1419,E,29.01,26.90,110315,,,A*6B
$GPRMC,080139.000,A,5100.8868,N,01318.1479,E,29.35,28.89,110315,,,A*66
$GPRMC,080140.000,A,5100.8938,N,01318.1547,E,29.40,32.22,110315,,,A*68
$GPRMC,080140.000,A,5100.8938,N,01318.1547,E,29.40,32.22,110315,,,A*68
$GPRMC,080141.000,A,5100.9004,N,01318.1624,E,29.45,37.16,110315,,,A*6F
$GPRMC,080142.000,A,5100.9069,N,01318.1708,E,29.51,40.97,110315,,,A*64
$GPRMC,080143.000,A,5100.9131,N,01318.1797,E,29.64,41.10,110315,,,A*67
$GPRMC,080144.000,A,5100.9194,N,01318.1882,E,29.67,37.86,110315,,,A*69
$GPRMC,080145.000,A,5100.9260,N,01318.1960,E,29.70,34.54,110315,,,A*67
$GPRMC,080146.000,A,5100.9329,N,01318.2035,E,30.48,32.23,110315,,,A*67
$GPRMC,080147.000,A,5100.9401,N,01318.2107,E,30.17,31.85,110315,,,A*6E
$GPRMC,080148.000,A,5100.9473,N,01318.2176,E,30.29,30.75,110315,,,A*61
$GPRMC,080149.000,A,5100.9545,N,01318.2245,E,30.41,29.97,110315,,,A*6D
$GPRMC,080150.000,A,5100.9619,N,01318.2312,E,30.51,29.39,110315,,,A*69
$GPRMC,080150.000,A,5100.9619,N,01318.2312,E,30.51,29.39,110315,,,A*69
$GPRMC,080151.000,A,5100.9696,N,01318.2378,E,31.16,28.75,110315,,,A*68
$GPRMC,080152.000,A,5100.9772,N,01318.2447,E,30.86,29.72,110315,,,A*65
$GPRMC,080153.000,A,5100.9850,N,01318.2514,E,31.32,28.97,110315,,,A*68
$GPRMC,080154.000,A,5100.9930,N,01318.2581,E,31.29,27.75,110315,,,A*6D
$GPRMC,080155.000,A,5101.0010,N,01318.2644,E,31.41,25.75,110315,,,A*69
$GPRMC,080156.000,A,5101.0091,N,01318.2704,E,31.50,25.28,110315,,,A*6E
$GPRMC,080157.000,A,5101.0173,N,01318.2760,E,31.52,23.25,110315,,,A*69
$GPRMC,080158.000,A,5101.0256,N,01318.2810,E,31.68,20.30,110315,,,A*64
$GPRMC,080159.000,A,5101.0341,N,01318.2856,E,31.65,18.59,110315,,,A*69
$GPRMC,080200.000,A,5101.0428,N,01318.2894,E,31.72,15.90,110315,,,A*6E
$GPRMC,080200.000,A,5101.0428,N,01318.2894,E,31.72,15.90,110315,,,A*6E
$GPRMC,080201.000,A,5101.0520,N,01318.2928,E,33.30,13.59,110315,,,A*67
$GPRMC,080202.000,A,5101.0612,N,01318.2960,E,33.76,11.97,110315,,,A*68
$GPRMC,080203.000,A,5101.0707,N,01318.2984,E,34.01,8.50,110315,,,A*52
$GPRMC,080204.000,A,5101.0800,N,01318.3003,E,33.30,6.50,110315,,,A*51
$GPRMC,080205.000,A,5101.0892,N,01318.3015,E,34.03,3.23,110315,,,A*5A
$GPRMC,080206.000,A,5101.0985,N,01318.3020,E,32.76,0.46,110315,,,A*5C
$GPRMC,080207.000,A,5101.1078,N,01318.3017,E,32.52,358.77,110315,,,A*59
$GPRMC,080208.000,A,5101.1169,N,01318.3011,E,31.43,357.16,110315,,,A*5A
$GPRMC,080209.000,A,5101.1259,N,01318.2999,E,31.70,354.46,110315,,,A*55
$GPRMC,080210.000,A,5101.1350,N,01318.2979,E,32.02,350.36,110315,,,A*5E
$GPRMC,080210.000,A,5101.1350,N,01318.2979,E,32.02,350.36,110315,,,A*5E
$GPRMC,080211.000,A,5101.1441,N,01318.2951,E,32.65,348.83,110315,,,A*54
$GPRMC,080212.000,A,5101.1532,N,01318.2919,E,32.88,347.39,110315,,,A*53
$GPRMC,080213.000,A,5101.1622,N,01318.2882,E,33.19,345.04,110315,,,A*56
$GPRMC,080214.000,A,5101.1713,N,01318.2839,E,33.38,343.75,110315,,,A*51
$GPRMC,080215.000,A,5101.1802,N,01318.2797,E,33.50,343.57,110315,,,A*5A
$GPRMC,080216.000,A,5101.1889,N,01318.2751,E,33.60,341.99,110315,,,A*53
$GPRMC,080217.000,A,5101.1976,N,01318.2704,E,33.65,341.31,110315,,,A*54
$GPRMC,080218.000,A,5101.2066,N,01318.2655,E,34.30,340.95,110315,,,A*5D
$GPRMC,080219.000,A,5101.2152,N,01318.2606,E,33.35,340.14,110315,,,A*57
$GPRMC,080220.000,A,5101.2239,N,01318.2554,E,33.40,339.65,110315,,,A*5D
$GPRMC,080220.000,A,5101.2239,N,01318.2554,E,33.40,339.65,110315,,,A*5D
$GPRMC,080221.000,A,5101.2326,N,01318.2501,E,33.72,339.47,110315,,,A*52
$GPRMC,080222.000,A,5101.2412,N,01318.2449,E,33.02,339.57,110315,,,A*5A
$GPRMC,080223.000,A,5101.2501,N,01318.2396,E,33.24,340.10,110315,,,A*54
$GPRMC,080224.000,A,5101.2587,N,01318.2343,E,33.12,339.25,110315,,,A*58
$GPRMC,080225.000,A,5101.2676,N,01318.2290,E,33.20,339.95,110315,,,A*51
$GPRMC,080226.000,A,5101.2766,N,01318.2235,E,34.72,338.52,110315,,,A*57
$GPRMC,080227.000,A,5101.2858,N,01318.2180,E,34.71,339.50,110315,,,A*59
$GPRMC,080228.000,A,5101.2951,N,01318.2129,E,34.66,340.79,110315,,,A*5E
$GPRMC,080229.000,A,5101.3044,N,01318.2080,E,34.95,341.37,110315,,,A*56
$GPRMC,080230.000,A,5101.3137,N,01318.2026,E,36.18,340.01,110315,,,A*54
$GPRMC,080230.000,A,5101.3137,N,01318.2026,E,36.18,340.01,110315,,,A*54
$GPRMC,080231.000,A,5101.3233,N,01318.1970,E,36.45,339.30,110315,,,A*5F
$GPRMC,080232.000,A,5101.3330,N,01318.1916,E,36.39,340.79,110315,,,A*56
$GPRMC,080233.000,A,5101.3425,N,01318.1865,E,35.71,341.37,110315,,,A*55
$GPRMC,080234.000,A,5101.3519,N,01318.1813,E,35.69,341.17,110315,,,A*56
$GPRMC,080235.000,A,5101.3616,N,01318.1760,E,35.93,340.92,110315,,,A*59
$GPRMC,080236.000,A,5101.3710,N,01318.1706,E,35.35,340.49,110315,,,A*57
$GPRMC,080237.000,A,5101.3805,N,01318.1651,E,35.39,340.15,110315,,,A*5B
$GPRMC,080238.000,A,5101.3899,N,01318.1597,E,35.33,339.87,110315,,,A*57
$GPRMC,080239.000,A,5101.3994,N,01318.1542,E,35.32,339.83,110315,,,A*57
$GPRMC,080240.000,A,5101.4088,N,01318.1488,E,35.25,339.67,110315,,,A*51
$GPRMC,080240.000,A,5101.4088,N,01318.1488,E,35.25,339.67,110315,,,A*51
$GPRMC,080241.000,A,5101.4182,N,01318.1433,E,35.42,339.40,110315,,,A*5F
$GPRMC,080242.000,A,5101.4276,N,01318.1378,E,35.35,340.21,110315,,,A*55
$GPRMC,080243.000,A,5101.4367,N,01318.1321,E,35.35,338.26,110315,,,A*51
$GPRMC,080244.000,A,5101.4461,N,01318.1260,E,35.35,337.33,110315,,,A*58
$GPRMC,080245.000,A,5101.4549,N,01318.1196,E,35.67,335.48,110315,,,A*51
$GPRMC,080246.000,A,5101.4640,N,01318.1129,E,36.04,335.42,110315,,,A*50
$GPRMC,080247.000,A,5101.4729,N,01318.1062,E,35.85,334.83,110315,,,A*57
$GPRMC,080248.000,A,5101.4819,N,01318.0991,E,35.46,333.83,110315,,,A*58
$GPRMC,080249.000,A,5101.4905,N,01318.0922,E,34.58,332.23,110315,,,A*58
$GPRMC,080250.000,A,5101.4990,N,01318.0849,E,33.95,331.53,110315,,,A*52
$GPRMC,080250.000,A,5101.4990,N,01318.0849,E,33.95,331.53,110315,,,A*52
$GPRMC,080251.000,A,5101.5075,N,01318.0778,E,33.63,330.57,110315,,,A*51
$GPRMC,080252.000,A,5101.5156,N,01318.0701,E,33.84,327.88,110315,,,A*51
$GPRMC,080253.000,A,5101.5233,N,01318.0619,E,33.40,326.20,110315,,,A*53
$GPRMC,080254.000,A,5101.5313,N,01318.0533,E,33.31,325.70,110315,,,A*5C
$GPRMC,080255.000,A,5101.5391,N,01318.0445,E,34.98,325.09,110315,,,A*5D
$GPRMC,080256.000,A,5101.5466,N,01318.0355,E,35.33,324.35,110315,,,A*59
$GPRMC,080257.000,A,5101.5547,N,01318.0263,E,34.98,323.38,110315,,,A*54
$GPRMC,080258.000,A,5101.5629,N,01318.0165,E,36.71,322.55,110315,,,A*5A
$GPRMC,080259.000,A,5101.5712,N,01318.0062,E,36.43,320.98,110315,,,A*56
$GPRMC,080300.000,A,5101.5795,N,01317.9953,E,37.85,320.20,110315,,,A*51
$GPRMC,080300.000,A,5101.5795,N,01317.9953,E,37.85,320.20,110315,,,A*51
$GPRMC,080301.000,A,5101.5876,N,01317.9841,E,38.15,318.99,110315,,,A*5F
$GPRMC,080302.000,A,5101.5956,N,01317.9730,E,38.08,318.43,110315,,,A*5D
$GPRMC,080303.000,A,5101.6039,N,01317.9617,E,39.03,318.96,110315,,,A*59
$GPRMC,080304.000,A,5101.6122,N,01317.9501,E,39.43,318.46,110315,,,A*58
$GPRMC,080305.000,A,5101.6207,N,01317.9386,E,39.67,319.29,110315,,,A*5A
$GPRMC,080306.000,A,5101.6289,N,01317.9271,E,39.68,319.24,110315,,,A*54
$GPRMC,080307.000,A,5101.6372,N,01317.9160,E,39.86,319.91,110315,,,A*5D
$GPRMC,080308.000,A,5101.6455,N,01317.9049,E,39.96,319.89,110315,,,A*52
$GPRMC,080309.000,A,5101.6537,N,01317.8939,E,39.87,319.68,110315,,,A*56
$GPRMC,080310.000,A,5101.6617,N,01317.8830,E,37.62,319.58,110315,,,A*51
$GPRMC,080310.000,A,5101.6617,N,01317.8830,E,37.62,319.58,110315,,,A*51
$GPRMC,080311.000,A,5101.6697,N,01317.8725,E,38.66,321.20,110315,,,A*5C
$GPRMC,080312.000,A,5101.6777,N,01317.8622,E,38.30,321.00,110315,,,A*57
$GPRMC,080313.000,A,5101.6856,N,01317.8521,E,36.35,321.34,110315,,,A*56
$GPRMC,080314.000,A,5101.6936,N,01317.8425,E,35.91,323.29,110315,,,A*50
$GPRMC,080315.000,A,5101.7018,N,01317.8333,E,36.06,325.10,110315,,,A*54
$GPRMC,080316.000,A,5101.7100,N,01317.8242,E,35.85,325.13,110315,,,A*53
$GPRMC,080317.000,A,5101.7179,N,01317.8153,E,35.31,325.77,110315,,,A*52
$GPRMC,080318.000,A,5101.7258,N,01317.8071,E,34.11,327.50,110315,,,A*58
$GPRMC,080319.000,A,5101.7336,N,01317.7990,E,33.53,326.82,110315,,,A*56
$GPRMC,080320.000,A,5101.7415,N,01317.7910,E,33.79,327.70,110315,,,A*56
$GPRMC,080320.000,A,5101.7415,N,01317.7910,E,33.79,327.70,110315,,,A*56
$GPRMC,080321.000,A,5101.7497,N,01317.7830,E,33.45,328.32,110315,,,A*58
$GPRMC,080322.000,A,5101.7580,N,01317.7747,E,35.17,328.23,110315,,,A*52
$GPRMC,080323.000,A,5101.7666,N,01317.7668,E,35.80,329.30,110315,,,A*59
$GPRMC,080324.000,A,5101.7753,N,01317.7588,E,35.33,330.47,110315,,,A*54
$GPRMC,080325.000,A,5101.7841,N,01317.7509,E,35.78,330.68,110315,,,A*52
$GPRMC,080326.000,A,5101.7932,N,01317.7430,E,36.14,331.21,110315,,,A*5A
$GPRMC,080327.000,A,5101.8028,N,01317.7354,E,36.52,333.01,110315,,,A*51
$GPRMC,080328.000,A,5101.8128,N,01317.7280,E,36.61,333.76,110315,,,A*57
$GPRMC,080329.000,A,5101.8226,N,01317.7208,E,38.57,334.80,110315,,,A*5E
$GPRMC,080330.000,A,5101.8325,N,01317.7136,E,38.00,334.95,110315,,,A*5C
$GPRMC,080330.000,A,5101.8325,N,01317.7136,E,38.00,334.95,110315,,,A*5C
$GPRMC,080331.000,A,5101.8425,N,01317.7064,E,38.35,335.84,110315,,,A*5B
$GPRMC,080332.000,A,5101.8524,N,01317.6996,E,38.62,336.59,110315,,,A*5C
$GPRMC,080333.000,A,5101.8627,N,01317.6931,E,38.85,337.84,110315,,,A*58
$GPRMC,080334.000,A,5101.8728,N,01317.6869,E,38.33,338.68,110315,,,A*5D
$GPRMC,080335.000,A,5101.8826,N,01317.6807,E,38.53,338.98,110315,,,A*5C
$GPRMC,080336.000,A,5101.8926,N,01317.6749,E,37.48,339.94,110315,,,A*53
$GPRMC,080337.000,A,5101.9025,N,01317.6693,E,37.10,339.92,110315,,,A*54
$GPRMC,080338.000,A,5101.9120,N,01317.6639,E,36.48,340.57,110315,,,A*54
$GPRMC,080339.000,A,5101.9219,N,01317.6588,E,36.58,342.22,110315,,,A*54
$GPRMC,080340.000,A,5101.9316,N,01317.6542,E,36.33,343.17,110315,,,A*58
$GPRMC,080340.000,A,5101.9316,N,01317.6542,E,36.33,343.17,110315,,,A*58
$GPRMC,080341.000,A,5101.9411,N,01317.6497,E,36.08,344.59,110315,,,A*55
$GPRMC,080342.000,A,5101.9506,N,01317.6457,E,36.03,346.50,110315,,,A*5D
$GPRMC,080343.000,A,5101.9605,N,01317.6419,E,36.09,346.83,110315,,,A*52
$GPRMC,080344.000,A,5101.9702,N,01317.6382,E,36.06,346.64,110315,,,A*50
$GPRMC,080345.000,A,5101.9799,N,01317.6347,E,35.90,347.12,110315,,,A*56
$GPRMC,080346.000,A,5101.9893,N,01317.6314,E,35.80,347.59,110315,,,A*58
$GPRMC,080347.000,A,5101.9984,N,01317.6283,E,33.11,347.58,110315,,,A*5E
$GPRMC,080348.000,A,5102.0070,N,01317.6256,E,30.71,348.89,110315,,,A*57
$GPRMC,080349.000,A,5102.0148,N,01317.6230,E,28.37,348.26,110315,,,A*52
$GPRMC,080350.000,A,5102.0221,N,01317.6208,E,25.90,349.04,110315,,,A*5C
$GPRMC,080350.000,A,5102.0221,N,01317.6208,E,25.90,349.04,110315,,,A*5C
$GPRMC,080351.000,A,5102.0286,N,01317.6191,E,23.71,350.22,110315,,,A*56
$GPRMC,080352.000,A,5102.0347,N,01317.6179,E,22.05,351.04,110315,,,A*58
$GPRMC,080353.000,A,5102.0403,N,01317.6174,E,20.53,351.75,110315,,,A*54
$GPRMC,080354.000,A,5102.0456,N,01317.6173,E,19.56,352.61,110315,,,A*5D
$GPRMC,080355.000,A,5102.0507,N,01317.6174,E,18.11,353.40,110315,,,A*5E
$GPRMC,080356.000,A,5102.0556,N,01317.6179,E,16.57,4.42,110315,,,A*5B
$GPRMC,080357.000,A,5102.0600,N,01317.6195,E,16.37,13.85,110315,,,A*63
$GPRMC,080358.000,A,5102.0644,N,01317.6218,E,16.92,20.14,110315,,,A*6D
$GPRMC,080359.000,A,5102.0682,N,01317.6254,E,17.36,29.31,110315,,,A*6F
$GPRMC,080400.000,A,5102.0725,N,01317.6300,E,18.84,35.15,110315,,,A*65
$GPRMC,080400.000,A,5102.0725,N,01317.6300,E,18.84,35.15,110315,,,A*65
$GPRMC,080401.000,A,5102.0770,N,01317.6365,E,21.90,44.41,110315,,,A*6F
$GPRMC,080402.000,A,5102.0815,N,01317.6442,E,24.15,46.83,110315,,,A*66
$GPRMC,080403.000,A,5102.0862,N,01317.6533,E,26.69,50.00,110315,,,A*65
$GPRMC,080404.000,A,5102.0912,N,01317.6637,E,29.33,52.06,110315,,,A*67
$GPRMC,080405.000,A,5102.0960,N,01317.6751,E,30.17,55.14,110315,,,A*68
$GPRMC,080406.000,A,5102.1004,N,01317.6867,E,31.04,57.34,110315,,,A*68
$GPRMC,080407.000,A,5102.1044,N,01317.6982,E,31.85,59.52,110315,,,A*60
$GPRMC,080408.000,A,5102.1079,N,01317.7104,E,29.74,62.70,110315,,,A*69
$GPRMC,080409.000,A,5102.1112,N,01317.7228,E,31.34,65.37,110315,,,A*60
$GPRMC,080410.000,A,5102.1143,N,01317.7357,E,31.19,68.40,110315,,,A*67
$GPRMC,080410.000,A,5102.1143,N,01317.7357,E,31.19,68.40,110315,,,A*67
$GPRMC,080411.000,A,5102.1168,N,01317.7493,E,31.23,71.48,110315,,,A*69
$GPRMC,080412.000,A,5102.1192,N,01317.7634,E,32.91,72.21,110315,,,A*66
$GPRMC,080413.000,A,5102.1215,N,01317.7775,E,32.06,72.45,110315,,,A*63
$GPRMC,080414.000,A,5102.1238,N,01317.7912,E,31.45,72.77,110315,,,A*61
$GPRMC,080415.000,A,5102.1258,N,01317.8044,E,30.35,74.06,110315,,,A*65
$GPRMC,080416.000,A,5102.1275,N,01317.8175,E,30.30,76.20,110315,,,A*69
$GPRMC,080417.000,A,5102.1295,N,01317.8310,E,31.28,75.81,110315,,,A*67
$GPRMC,080418.000,A,5102.1312,N,01317.8448,E,30.42,77.07,110315,,,A*6D
$GPRMC,080419.000,A,5102.1332,N,01317.8589,E,32.62,76.09,110315,,,A*6D
$GPRMC,080420.000,A,5102.1353,N,01317.8734,E,33.62,75.99,110315,,,A*6F
$GPRMC,080420.000,A,5102.1353,N,01317.8734,E,33.62,75.99,110315,,,A*6F
$GPRMC,080421.000,A,5102.1375,N,01317.8885,E,34.63,76.98,110315,,,A*6B
$GPRMC,080422.000,A,5102.1393,N,01317.9041,E,35.90,78.52,110315,,,A*64
$GPRMC,080423.000,A,5102.1409,N,01317.9204,E,37.63,79.50,110315,,,A*6F
$GPRMC,080424.000,A,5102.1425,N,01317.9370,E,38.55,80.03,110315,,,A*6E
$GPRMC,080425.000,A,5102.1440,N,01317.9542,E,39.29,80.51,110315,,,A*66
$GPRMC,080426.000,A,5102.1455,N,01317.9714,E,39.51,80.74,110315,,,A*68
$GPRMC,080427.000,A,5102.1472,N,01317.9887,E,40.13,80.48,110315,,,A*6E
$GPRMC,080428.000,A,5102.1488,N,01318.0060,E,39.55,79.90,110315,,,A*6C
$GPRMC,080429.000,A,5102.1507,N,01318.0234,E,40.14,80.33,110315,,,A*6C
$GPRMC,080430.000,A,5102.1526,N,01318.0410,E,40.29,80.70,110315,,,A*6E
$GPRMC,080430.000,A,5102.1526,N,01318.0410,E,40.29,80.70,110315,,,A*6E
$GPRMC,080431.000,A,5102.1543,N,01318.0587,E,40.26,80.89,110315,,,A*6A
$GPRMC,080432.000,A,5102.1558,N,01318.0766,E,40.58,80.68,110315,,,A*68
$GPRMC,080433.000,A,5102.1576,N,01318.0946,E,40.53,80.21,110315,,,A*6F
$GPRMC,080434.000,A,5102.1593,N,01318.1128,E,40.76,80.24,110315,,,A*60
$GPRMC,080435.000,A,5102.1612,N,01318.1318,E,40.95,79.28,110315,,,A*6D
$GPRMC,080436.000,A,5102.1634,N,01318.1513,E,45.48,78.42,110315,,,A*6F
$GPRMC,080437.000,A,5102.1658,N,01318.1716,E,47.33,79.48,110315,,,A*66
$GPRMC,080438.000,A,5102.1680,N,01318.1927,E,48.75,80.20,110315,,,A*65
$GPRMC,080439.000,A,5102.1703,N,01318.2144,E,50.18,80.22,110315,,,A*60
$GPRMC,080440.000,A,5102.1725,N,01318.2368,E,51.95,81.04,110315,,,A*67
$GPRMC,080440.000,A,5102.1725,N,01318.2368,E,51.95,81.04,110315,,,A*67
$GPRMC,080441.000,A,5102.1747,N,01318.2597,E,52.46,81.34,110315,,,A*6A
$GPRMC,080442.000,A,5102.1769,N,01318.2826,E,52.47,81.28,110315,,,A*6E
$GPRMC,080443.000,A,5102.1790,N,01318.3054,E,51.80,81.33,110315,,,A*67
$GPRMC,080444.000,A,5102.1810,N,01318.3279,E,52.81,81.76,110315,,,A*69
$GPRMC,080445.000,A,5102.1829,N,01318.3505,E,51.37,81.33,110315,,,A*61
$GPRMC,080446.000,A,5102.1847,N,01318.3729,E,51.38,81.26,110315,,,A*6D
$GPRMC,080447.000,A,5102.1866,N,01318.3952,E,51.45,81.29,110315,,,A*68
$GPRMC,080448.000,A,5102.1884,N,01318.4178,E,51.30,81.15,110315,,,A*61
$GPRMC,080449.000,A,5102.1904,N,01318.4401,E,51.20,81.16,110315,,,A*60
$GPRMC,080450.000,A,5102.1922,N,01318.4625,E,50.97,81.85,110315,,,A*6F
$GPRMC,080450.000,A,5102.1922,N,01318.4625,E,50.97,81.85,110315,,,A*6F
$GPRMC,080451.000,A,5102.1941,N,01318.4847,E,50.59,81.57,110315,,,A*6C
$GPRMC,080452.000,A,5102.1961,N,01318.5068,E,50.61,81.31,110315,,,A*62
$GPRMC,080453.000,A,5102.1982,N,01318.5288,E,50.52,81.23,110315,,,A*61
$GPRMC,080454.000,A,5102.2003,N,01318.5506,E,50.40,81.09,110315,,,A*6F
$GPRMC,080455.000,A,5102.2024,N,01318.5723,E,50.31,81.33,110315,,,A*61
$GPRMC,080456.000,A,5102.2044,N,01318.5945,E,50.31,81.85,110315,,,A*67
$GPRMC,080457.000,A,5102.2066,N,01318.6170,E,51.59,81.15,110315,,,A*6D
$GPRMC,080458.000,A,5102.2088,N,01318.6396,E,51.85,81.40,110315,,,A*69
$GPRMC,080459.000,A,5102.2109,N,01318.6622,E,51.61,81.78,110315,,,A*6B
$GPRMC,080500.000,A,5102.2131,N,01318.6846,E,51.89,81.08,110315,,,A*60
$GPRMC,080500.000,A,5102.2131,N,01318.6846,E,51.89,81.08,110315,,,A*60
$GPRMC,080501.000,A,5102.2153,N,01318.7071,E,52.10,81.76,110315,,,A*62
$GPRMC,080502.000,A,5102.2174,N,01318.7297,E,52.21,81.57,110315,,,A*6F
$GPRMC,080503.000,A,5102.2194,N,01318.7524,E,52.15,80.83,110315,,,A*60
$GPRMC,080504.000,A,5102.2214,N,01318.7752,E,52.21,81.22,110315,,,A*62
$GPRMC,080505.000,A,5102.2234,N,01318.7980,E,52.30,80.95,110315,,,A*6D
$GPRMC,080506.000,A,5102.2258,N,01318.8207,E,52.40,80.79,110315,,,A*6A
$GPRMC,080507.000,A,5102.2283,N,01318.8435,E,52.37,80.93,110315,,,A*6E
$GPRMC,080508.000,A,5102.2307,N,01318.8662,E,51.89,80.68,110315,,,A*6E
$GPRMC,080509.000,A,5102.2330,N,01318.8888,E,52.13,81.07,110315,,,A*69
$GPRMC,080510.000,A,5102.2352,N,01318.9113,E,52.05,81.50,110315,,,A*6A
$GPRMC,080510.000,A,5102.2352,N,01318.9113,E,52.05,81.50,110315,,,A*6A
$GPRMC,080511.000,A,5102.2375,N,01318.9338,E,51.95,81.37,110315,,,A*6E
$GPRMC,080512.000,A,5102.2397,N,01318.9562,E,51.85,81.30,110315,,,A*6E
$GPRMC,080513.000,A,5102.2420,N,01318.9785,E,51.39,81.20,110315,,,A*69
$GPRMC,080514.000,A,5102.2441,N,01319.0010,E,51.61,81.42,110315,,,A*63
$GPRMC,080515.000,A,5102.2464,N,01319.0232,E,51.46,80.82,110315,,,A*6F
$GPRMC,080516.000,A,5102.2486,N,01319.0454,E,51.35,81.34,110315,,,A*6E
$GPRMC,080517.000,A,5102.2509,N,01319.0673,E,51.25,80.56,110315,,,A*6A
$GPRMC,080518.000,A,5102.2533,N,01319.0892,E,51.15,80.59,110315,,,A*61
$GPRMC,080519.000,A,5102.2554,N,01319.1112,E,50.43,81.16,110315,,,A*69
$GPRMC,080520.000,A,5102.2575,N,01319.1334,E,50.69,81.34,110315,,,A*6E
$GPRMC,080520.000,A,5102.2575,N,01319.1334,E,50.69,81.34,110315,,,A*6E
$GPRMC,080521.000,A,5102.2595,N,01319.1555,E,50.57,80.98,110315,,,A*6A
$GPRMC,080522.000,A,5102.2618,N,01319.1775,E,50.62,80.36,110315,,,A*6D
$GPRMC,080523.000,A,5102.2638,N,01319.1995,E,50.40,81.42,110315,,,A*6C
$GPRMC,080524.000,A,5102.2660,N,01319.2215,E,50.41,80.49,110315,,,A*6D
$GPRMC,080525.000,A,5102.2683,N,01319.2433,E,50.43,80.20,110315,,,A*6E
$GPRMC,080526.000,A,5102.2707,N,01319.2652,E,50.35,79.20,110315,,,A*62
$GPRMC,080527.000,A,5102.2733,N,01319.2869,E,50.31,78.66,110315,,,A*65
$GPRMC,080528.000,A,5102.2761,N,01319.3086,E,50.21,78.06,110315,,,A*62
$GPRMC,080529.000,A,5102.2792,N,01319.3304,E,50.27,76.65,110315,,,A*6B
$GPRMC,080530.000,A,5102.2826,N,01319.3521,E,50.46,75.86,110315,,,A*6B
$GPRMC,080530.000,A,5102.2826,N,01319.3521,E,50.46,75.86,110315,,,A*6B
$GPRMC,080531.000,A,5102.2862,N,01319.3738,E,50.36,74.66,110315,,,A*68
$GPRMC,080532.000,A,5102.2900,N,01319.3954,E,50.41,73.81,110315,,,A*64
$GPRMC,080533.000,A,5102.2940,N,01319.4170,E,51.14,73.31,110315,,,A*62
$GPRMC,080534.000,A,5102.2982,N,01319.4387,E,50.87,71.89,110315,,,A*6B
$GPRMC,080535.000,A,5102.3026,N,01319.4607,E,51.88,71.63,110315,,,A*6B
$GPRMC,080536.000,A,5102.3070,N,01319.4829,E,52.48,71.36,110315,,,A*66
$GPRMC,080537.000,A,5102.3119,N,01319.5049,E,52.27,69.96,110315,,,A*6C
$GPRMC,080538.000,A,5102.3169,N,01319.5264,E,52.51,68.84,110315,,,A*6A
$GPRMC,080539.000,A,5102.3220,N,01319.5475,E,52.62,67.04,110315,,,A*64
$GPRMC,080540.000,A,5102.3277,N,01319.5685,E,52.74,66.27,110315,,,A*62
$GPRMC,080540.000,A,5102.3277,N,01319.5685,E,52.74,66.27,110315,,,A*62
$GPRMC,080541.000,A,5102.3337,N,01319.5892,E,52.66,64.49,110315,,,A*67
$GPRMC,080542.000,A,5102.3399,N,01319.6095,E,52.61,63.82,110315,,,A*6B
$GPRMC,080543.000,A,5102.3463,N,01319.6298,E,52.02,63.52,110315,,,A*6F
$GPRMC,080544.000,A,5102.3531,N,01319.6501,E,52.32,63.06,110315,,,A*6B
$GPRMC,080545.000,A,5102.3598,N,01319.6706,E,52.22,62.36,110315,,,A*6F
$GPRMC,080546.000,A,5102.3670,N,01319.6906,E,52.12,60.71,110315,,,A*65
$GPRMC,080547.000,A,5102.3743,N,01319.7102,E,52.03,59.56,110315,,,A*67
$GPRMC,080548.000,A,5102.3818,N,01319.7296,E,51.68,58.23,110315,,,A*6A
$GPRMC,080549.000,A,5102.3896,N,01319.7489,E,51.89,56.82,110315,,,A*6F
$GPRMC,080550.000,A,5102.3979,N,01319.7681,E,53.13,55.59,110315,,,A*69
$GPRMC,080550.000,A,5102.3979,N,01319.7681,E,53.13,55.59,110315,,,A*69
$GPRMC,080551.000,A,5102.4067,N,01319.7872,E,53.40,53.82,110315,,,A*6D
$GPRMC,080552.000,A,5102.4156,N,01319.8060,E,53.14,53.12,110315,,,A*61
$GPRMC,080553.000,A,5102.4250,N,01319.8243,E,53.42,51.63,110315,,,A*61
$GPRMC,080554.000,A,5102.4346,N,01319.8424,E,53.65,50.37,110315,,,A*62
$GPRMC,080555.000,A,5102.4444,N,01319.8600,E,53.70,48.72,110315,,,A*6E
$GPRMC,080556.000,A,5102.4542,N,01319.8774,E,53.60,48.20,110315,,,A*6E
$GPRMC,080557.000,A,5102.4642,N,01319.8945,E,53.60,47.13,110315,,,A*6F
$GPRMC,080558.000,A,5102.4744,N,01319.9113,E,53.63,45.87,110315,,,A*61
$GPRMC,080559.000,A,5102.4848,N,01319.9277,E,53.59,44.41,110315,,,A*60
$GPRMC,080600.000,A,5102.4955,N,01319.9438,E,53.55,43.15,110315,,,A*65
$GPRMC,080600.000,A,5102.4955,N,01319.9438,E,53.55,43.15,110315,,,A*65
$GPRMC,080601.000,A,5102.5063,N,01319.9594,E,53.53,41.48,110315,,,A*62
$GPRMC,080602.000,A,5102.5174,N,01319.9746,E,53.52,40.22,110315,,,A*67
$GPRMC,080603.000,A,5102.5285,N,01319.9897,E,53.45,40.11,110315,,,A*6E
$GPRMC,080604.000,A,5102.5398,N,01320.0044,E,53.39,39.44,110315,,,A*64
$GPRMC,080605.000,A,5102.5511,N,01320.0189,E,53.32,38.81,110315,,,A*61
$GPRMC,080606.000,A,5102.5623,N,01320.0334,E,53.24,38.86,110315,,,A*64
$GPRMC,080607.000,A,5102.5736,N,01320.0476,E,53.17,37.96,110315,,,A*6F
$GPRMC,080608.000,A,5102.5853,N,01320.0618,E,52.63,38.20,110315,,,A*66
$GPRMC,080609.000,A,5102.5968,N,01320.0759,E,52.82,37.61,110315,,,A*6F
$GPRMC,080610.000,A,5102.6083,N,01320.0900,E,52.72,37.88,110315,,,A*62
$GPRMC,080610.000,A,5102.6083,N,01320.0900,E,52.72,37.88,110315,,,A*62
$GPRMC,080611.000,A,5102.6198,N,01320.1040,E,52.34,37.66,110315,,,A*66
$GPRMC,080612.000,A,5102.6312,N,01320.1178,E,52.40,37.47,110315,,,A*6F
$GPRMC,080613.000,A,5102.6426,N,01320.1319,E,52.23,37.70,110315,,,A*6A
$GPRMC,080614.000,A,5102.6544,N,01320.1460,E,52.26,38.10,110315,,,A*6D
$GPRMC,080615.000,A,5102.6659,N,01320.1601,E,52.17,38.42,110315,,,A*63
$GPRMC,080616.000,A,5102.6775,N,01320.1744,E,52.47,38.75,110315,,,A*6E
$GPRMC,080617.000,A,5102.6890,N,01320.1888,E,52.34,38.89,110315,,,A*63
$GPRMC,080618.000,A,5102.7004,N,01320.2033,E,52.40,39.15,110315,,,A*64
$GPRMC,080619.000,A,5102.7117,N,01320.2179,E,52.41,39.85,110315,,,A*61
$GPRMC,080620.000,A,5102.7230,N,01320.2326,E,52.45,40.10,110315,,,A*63
$GPRMC,080620.000,A,5102.7230,N,01320.2326,E,52.45,40.10,110315,,,A*63
$GPRMC,080621.000,A,5102.7338,N,01320.2478,E,52.86,41.87,110315,,,A*67
$GPRMC,080622.000,A,5102.7447,N,01320.2635,E,52.68,43.04,110315,,,A*69
$GPRMC,080623.000,A,5102.7554,N,01320.2796,E,52.78,43.96,110315,,,A*69
$GPRMC,080624.000,A,5102.7659,N,01320.2961,E,52.86,45.52,110315,,,A*69
$GPRMC,080625.000,A,5102.7761,N,01320.3130,E,53.39,47.06,110315,,,A*69
$GPRMC,080626.000,A,5102.7860,N,01320.3304,E,53.22,48.25,110315,,,A*65
$GPRMC,080627.000,A,5102.7958,N,01320.3481,E,53.27,49.63,110315,,,A*62
$GPRMC,080628.000,A,5102.8053,N,01320.3663,E,53.13,51.06,110315,,,A*63
$GPRMC,080629.000,A,5102.8145,N,01320.3848,E,53.54,52.39,110315,,,A*6F
$GPRMC,080630.000,A,5102.8232,N,01320.4037,E,53.43,53.63,110315,,,A*6B
$GPRMC,080630.000,A,5102.8232,N,01320.4037,E,53.43,53.63,110315,,,A*6B
$GPRMC,080631.000,A,5102.8318,N,01320.4230,E,53.24,55.66,110315,,,A*64
$GPRMC,080632.000,A,5102.8400,N,01320.4428,E,53.39,57.17,110315,,,A*6E
$GPRMC,080633.000,A,5102.8479,N,01320.4627,E,53.33,58.65,110315,,,A*6C
$GPRMC,080634.000,A,5102.8555,N,01320.4830,E,53.38,59.90,110315,,,A*6C
$GPRMC,080635.000,A,5102.8626,N,01320.5035,E,53.32,61.07,110315,,,A*69
$GPRMC,080636.000,A,5102.8693,N,01320.5244,E,53.24,63.11,110315,,,A*62
$GPRMC,080637.000,A,5102.8757,N,01320.5454,E,53.29,64.04,110315,,,A*63
$GPRMC,080638.000,A,5102.8817,N,01320.5668,E,53.24,66.26,110315,,,A*65
$GPRMC,080639.000,A,5102.8874,N,01320.5886,E,53.30,67.12,110315,,,A*6C
$GPRMC,080640.000,A,5102.8926,N,01320.6108,E,53.25,68.73,110315,,,A*64
$GPRMC,080640.000,A,5102.8926,N,01320.6108,E,53.25,68.73,110315,,,A*64
$GPRMC,080641.000,A,5102.8975,N,01320.6330,E,53.25,70.22,110315,,,A*67
$GPRMC,080642.000,A,5102.9021,N,01320.6555,E,53.58,71.43,110315,,,A*64
$GPRMC,080643.000,A,5102.9064,N,01320.6780,E,53.41,72.10,110315,,,A*63
$GPRMC,080644.000,A,5102.9108,N,01320.7005,E,53.45,72.70,110315,,,A*66
$GPRMC,080645.000,A,5102.9150,N,01320.7232,E,53.50,73.38,110315,,,A*65
$GPRMC,080646.000,A,5102.9187,N,01320.7464,E,54.41,75.06,110315,,,A*65
$GPRMC,080647.000,A,5102.9223,N,01320.7700,E,55.19,75.68,110315,,,A*6C
$GPRMC,080648.000,A,5102.9259,N,01320.7939,E,55.43,76.33,110315,,,A*68
$GPRMC,080649.000,A,5102.9294,N,01320.8177,E,55.21,76.78,110315,,,A*6E
$GPRMC,080650.000,A,5102.9327,N,01320.8415,E,55.62,77.06,110315,,,A*61
$GPRMC,080650.000,A,5102.9327,N,01320.8415,E,55.62,77.06,110315,,,A*61
$GPRMC,080651.000,A,5102.9359,N,01320.8653,E,55.10,77.65,110315,,,A*69
$GPRMC,080652.000,A,5102.9390,N,01320.8891,E,55.45,78.18,110315,,,A*6A
$GPRMC,080653.000,A,5102.9422,N,01320.9131,E,55.37,77.31,110315,,,A*66
$GPRMC,080654.000,A,5102.9454,N,01320.9369,E,55.34,78.04,110315,,,A*65
$GPRMC,080655.000,A,5102.9487,N,01320.9607,E,55.33,77.93,110315,,,A*61
$GPRMC,080656.000,A,5102.9519,N,01320.9844,E,55.27,77.74,110315,,,A*61
$GPRMC,080657.000,A,5102.9551,N,01321.0076,E,55.20,77.25,110315,,,A*6E
$GPRMC,080658.000,A,5102.9584,N,01321.0305,E,53.05,76.67,110315,,,A*68
$GPRMC,080659.000,A,5102.9616,N,01321.0534,E,53.95,77.28,110315,,,A*66
$GPRMC,080700.000,A,5102.9651,N,01321.0764,E,53.62,76.78,110315,,,A*63
$GPRMC,080700.000,A,5102.9651,N,01321.0764,E,53.62,76.78,110315,,,A*63
$GPRMC,080701.000,A,5102.9686,N,01321.0996,E,53.35,76.72,110315,,,A*63
$GPRMC,080702.000,A,5102.9723,N,01321.1228,E,53.23,75.94,110315,,,A*6D
$GPRMC,080703.000,A,5102.9761,N,01321.1463,E,55.00,75.75,110315,,,A*6B
$GPRMC,080704.000,A,5102.9800,N,01321.1700,E,55.30,75.71,110315,,,A*65
$GPRMC,080705.000,A,5102.9838,N,01321.1936,E,54.91,75.87,110315,,,A*67
$GPRMC,080706.000,A,5102.9875,N,01321.2172,E,55.25,75.95,110315,,,A*6B
$GPRMC,080707.000,A,5102.9912,N,01321.2407,E,54.68,76.83,110315,,,A*61
$GPRMC,080708.000,A,5102.9947,N,01321.2642,E,55.22,76.94,110315,,,A*64
$GPRMC,080709.000,A,5102.9982,N,01321.2877,E,55.00,77.57,110315,,,A*6A
$GPRMC,080710.000,A,5103.0018,N,01321.3112,E,54.54,76.72,110315,,,A*6D
$GPRMC,080710.000,A,5103.0018,N,01321.3112,E,54.54,76.72,110315,,,A*6D
$GPRMC,080711.000,A,5103.0054,N,01321.3347,E,55.18,77.28,110315,,,A*61
$GPRMC,080712.000,A,5103.0089,N,01321.3580,E,54.89,76.66,110315,,,A*6D
$GPRMC,080713.000,A,5103.0126,N,01321.3813,E,54.92,75.34,110315,,,A*61
$GPRMC,080714.000,A,5103.0164,N,01321.4044,E,54.81,75.38,110315,,,A*63
$GPRMC,080715.000,A,5103.0204,N,01321.4273,E,54.16,74.49,110315,,,A*68
$GPRMC,080716.000,A,5103.0247,N,01321.4502,E,54.50,73.63,110315,,,A*60
$GPRMC,080717.000,A,5103.0290,N,01321.4732,E,54.44,72.78,110315,,,A*64
$GPRMC,080718.000,A,5103.0336,N,01321.4959,E,54.24,71.46,110315,,,A*6D
